{
  "participants" : [
    {
      "id": 1,
      "name": "Jocelynn Bucken",
      "outOfBattery": false,
      "placeAlert": true,
      "heartRate": false,
      "calendar": false,
      "location": [34.745, -86.63],
      "address": {
        "state": "Alabama",
        "city": "Huntsville",
        "street": "3223  Maple Lane"
      },
      "exclusionZones" : [
        {
          "center": [34.745, -86.63],
          "radius": 1500
        },
        {
          "center": [34.738, -86.635],
          "radius": 1300
        }
      ]
    },
    {
      "id": 2,
      "name": "Glenn Cake",
      "outOfBattery": false,
      "placeAlert": false,
      "heartRate": false,
      "calendar": false,
      "location": [34.738, -86.635],
      "address": {
        "state": "Alabama",
        "city": "Huntsville",
        "street": "6807 Criner Rd SE"
      },
      "exclusionZones" : [
        {
          "center": [34.749, -86.635],
          "radius": 1400
        }
      ]
    },
    {
      "id": 3,
      "name": "Marcia Carillo",
      "outOfBattery": false,
      "placeAlert": false,
      "heartRate": true,
      "calendar": false,
      "location": [34.749, -86.635],
      "address": {
        "state": "Alabama",
        "city": "Huntsville",
        "street": "6603 Willow Springs Blvd NW"
      },
      "exclusionZones" : [
        {
          "center": [34.73, -86.60],
          "radius": 1400
        },
        {
          "center": [34.73, -86.605],
          "radius": 1200
        }
      ]
    },
    {
      "id": 4,
      "name": "Dunlap Kim",
      "outOfBattery": false,
      "placeAlert": false,
      "heartRate": false,
      "calendar": false,
      "location": [34.753, -86.637],
      "address": {
        "state": "Alabama",
        "city": "Huntsville",
        "street": "8009 Randall Rd SW"
      },
      "exclusionZones" : [
        {
          "center": [34.748, -86.60],
          "radius": 1150
        },
        {
          "center": [34.73, -86.635],
          "radius": 1350
        }
      ]
    },
    {
      "id": 5,
      "name": "Debbie Hurtado",
      "outOfBattery": false,
      "placeAlert": false,
      "heartRate": false,
      "calendar": true,
      "location": [34.748, -86.641],
      "address": {
        "state": "Alabama",
        "city": "Huntsville",
        "street": "712 Mountain Gap Rd SE"
      },
      "exclusionZones" : [
        {
          "center": [34.748, -86.60],
          "radius": 1256
        },
        {
          "center": [34.73, -86.635],
          "radius": 1160
        },
        {
          "center": [34.741, -86.632],
          "radius": 1350
        }
      ]
    },
    {
      "id": 6,
      "name": "John Doe",
      "outOfBattery": true,
      "placeAlert": true,
      "heartRate": false,
      "calendar": false,
      "location": [34.73, -86.60],
      "address": {
        "state": "Alabama",
        "city": "Huntsville",
        "street": "1689  Ritter Street"
      },
      "exclusionZones" : [
        {
          "center": [34.751, -86.642],
          "radius": 1600
        }
      ]
    },
    {
      "id": 7,
      "name": "Alyssa Moody",
      "outOfBattery": false,
      "placeAlert": false,
      "heartRate": false,
      "calendar": false,
      "location": [34.738, -86.59],
      "address": {
        "state": "Alabama",
        "city": "Huntsville",
        "street": "371 College Park Cir NW"
      },
      "exclusionZones" : []
    },
    {
      "id": 8,
      "name": "Tom Mullaney",
      "outOfBattery": false,
      "placeAlert": false,
      "heartRate": true,
      "calendar": false,
      "location": [34.73, -86.583],
      "address": {
        "state": "Alabama",
        "city": "Huntsville",
        "street": "3907 Harwood Ave SW"
      },
      "exclusionZones" : []
    },
    {
      "id": 9,
      "name": "Presly Alday",
      "outOfBattery": true,
      "placeAlert": false,
      "heartRate": false,
      "calendar": false,
      "location": [34.73, -86.59],
      "address": {
        "state": "Alabama",
        "city": "Huntsville",
        "street": "712 Mountain Gap Rd SE"
      },
      "exclusionZones" : []
    },
    {
      "id": 10,
      "name": "Evalynn Duhart",
      "outOfBattery": false,
      "placeAlert": false,
      "heartRate": false,
      "calendar": true,
      "location": [34.738, -86.57],
      "address": {
        "state": "Alabama",
        "city": "Huntsville",
        "street": "2211 Linde St NW"
      },
      "exclusionZones" : []
    }
  ]
}
